ms,lon,lat,yaw,pitch,roll
0,-88.2407696980929,40.0949763423495,-0.709924,-0.763359,-2.648855
100,-88.2407670247861,40.09497313013625,-0.709924,-0.763359,-2.648855
200,-88.2407643514793,40.094969917923,1.083969,-0.206107,1.458015
300,-88.2407591696091,40.09497382036365,0.511450,-0.381679,2.267176
400,-88.2407539877389,40.0949777228043,-1.045802,0.007634,1.206107
500,-88.24074910470985,40.0949805243763,-2.000000,0.396947,-0.732824
600,-88.2407442216808,40.0949833259483,-0.656489,0.213740,2.503817
700,-88.24074012870301,40.09498802523265,-4.145038,0.045802,-4.274809
800,-88.2407360357252,40.094992724517,-0.572519,0.580153,5.572519
900,-88.2407309880684,40.09499748466335,-0.534351,0.732824,8.618320
1000,-88.2407259404116,40.0950022448097,-3.564885,0.908397,3.106870
1100,-88.2407218981745,40.09500712515525,-2.519084,-0.190840,-1.862595
1200,-88.2407178559374,40.0950120055008,0.366412,-0.465649,-3.969466
1300,-88.2407132292928,40.095016873726195,4.923664,-1.656489,-1.954198
1400,-88.2407086026482,40.0950217419516,4.938931,-1.740458,-4.908397
1500,-88.24070485011126,40.09502735821435,4.450382,-1.297710,-7.595420
1600,-88.2407010975743,40.0950329744771,9.007633,-0.770992,-4.824428
1700,-88.2406975525727,40.09503776786785,-2.763359,-1.198473,-12.007633
1800,-88.2406940075711,40.0950425612586,-8.809160,-0.969466,-18.969465
1900,-88.24069083298875,40.0950477527442,-3.633588,-75.419846,-17.778625
2000,-88.2406845900007,40.0950576944975,1.572519,36.114502,13.549619
2100,-88.240681521595,40.0950624447652,-3.129771,2.137405,0.587786
2200,-88.2406786068124,40.095067174604,-8.061069,28.969465,-4.015267
2300,-88.2406756920298,40.0950719044428,-6.541985,0.366412,-12.114504
2400,-88.24067241802004,40.09507658693405,-5.343512,-4.419847,-8.885496
2500,-88.2406691440103,40.0950812694253,-3.954198,-1.961832,0.404580
2600,-88.24066640389665,40.09508667455055,-4.290076,-1.183206,-1.793893
2700,-88.240663663783,40.0950920796758,-4.137404,-1.351145,-4.045802
2800,-88.2406610814343,40.09509726126425,-2.541985,-1.419847,-2.977099
2900,-88.2406584990856,40.0951024428527,-4.083970,0.877863,-13.770992
3000,-88.2406561151322,40.095107621290396,-8.732824,-0.580153,-29.404581
3100,-88.2406537311788,40.0951127997281,-13.549619,0.358779,-40.267174
3200,-88.24065249522184,40.09511803913725,-30.198473,-0.938931,-77.503815
3300,-88.2406512592649,40.0951232785464,-24.480917,-4.496183,-52.091602
3400,-88.24064976042105,40.095128516000656,-9.511451,-2.244275,-21.603054
3500,-88.2406482615772,40.0951337534549,-2.748092,-2.374046,-11.206107
3600,-88.24064697481435,40.09513912757565,-9.587787,-2.587786,-17.618320
3700,-88.24064494851595,40.0951501735093,-30.809160,-2.183206,-54.198475
3800,-88.2406442089804,40.0951558453222,-19.580153,-4.564886,-27.618320
3900,-88.2406453363392,40.0951613638859,-10.480916,-4.977099,-6.931298
4000,-88.240646463698,40.0951668824496,8.580153,1.618321,9.648855
4100,-88.24065047813446,40.095171326772245,6.198473,13.763359,11.335877
4200,-88.2406544925709,40.0951757710949,6.167939,3.725191,13.748092
4300,-88.24066009811855,40.09517955855705,-9.335877,4.862596,-21.511450
4400,-88.2406657036662,40.0951833460192,17.587786,8.610687,32.190838
4500,-88.24067207898216,40.0951866891084,9.160305,-0.702290,22.412214
4600,-88.2406784542981,40.0951900321976,12.389313,-16.312977,-16.564886
4700,-88.24068189780303,40.0951916332604,-8.290076,-0.725191,-47.038166
4800,-88.24068534130795,40.095193234323204,-6.328244,1.381679,-52.305344
4900,-88.24068878481287,40.095194835386,-23.625954,8.175572,-81.587784
5000,-88.2406922283178,40.0951964364488,-11.610687,-12.877863,-26.320610
5100,-88.24069894507966,40.09519951261155,-10.030535,-7.839694,-20.664122
5200,-88.2407056618415,40.0952025887743,4.824428,-6.687023,8.183207
5300,-88.24071227112975,40.09520636232385,-1.190840,-15.099236,-15.267176
5400,-88.240718880418,40.0952101358734,-34.931297,3.480916,-53.595421
5500,-88.24072232395802,40.095211979680855,-12.824428,-11.236641,17.801527
5600,-88.24072576749805,40.0952138234883,-14.526717,-12.022901,-10.717557
5700,-88.24072921103807,40.09521566729575,-51.725189,-31.381680,-84.496185
5800,-88.2407326545781,40.0952175111032,-18.793894,-24.610687,19.442749
5900,-88.24073931513685,40.095221172284255,-12.633588,-6.664122,0.450382
6000,-88.2407459756956,40.0952248334653,-30.137405,-5.839694,-17.236641
6100,-88.2407580411119,40.0952336385737,-1.198473,14.603053,42.297710
6200,-88.24076392302275,40.095238017263156,12.259542,8.038168,52.786259
6300,-88.2407698049336,40.0952423959526,-13.015267,-1.893130,8.099236
6400,-88.24077605315875,40.09524660600995,-9.557252,22.290077,20.664122
6500,-88.2407823013839,40.0952508160673,-0.648855,26.992367,35.885498
6600,-88.2407879197265,40.09525560110565,15.251908,-19.175573,35.198475
6700,-88.2407935380691,40.095260386144,28.854961,-7.213740,24.740458
6800,-88.2407986632928,40.095265222138394,21.389313,-16.381680,22.916031
6900,-88.2408037885165,40.0952700581328,23.755726,-14.366412,15.412213
7000,-88.24080925560716,40.0952749183799,14.992367,6.389313,-14.488549
7100,-88.2408206381177,40.0952847432326,6.496183,-22.381680,-17.000000
7200,-88.2408265535376,40.0952897078382,3.465649,80.015266,-37.114502
7300,-88.24083170217145,40.0952952011394,13.870229,34.847328,3.229008
7400,-88.2408368508053,40.0953006944406,-20.572519,23.206106,-20.129770
7500,-88.24084191651805,40.095305979172096,-14.625955,33.900764,22.091602
7600,-88.2408469822308,40.0953112639036,-6.473282,-10.335877,20.732824
7700,-88.2408519800492,40.0953169018743,-10.007633,-8.603053,-0.664122
7800,-88.2408569778676,40.095322539845,-5.656488,-32.007633,4.145038
7900,-88.24086189634485,40.0953278503939,-20.641222,32.900764,-3.404580
8000,-88.2408668148221,40.0953331609428,-9.435115,-10.427481,29.832062
8100,-88.24087139864861,40.095339008908454,10.885496,-26.633587,-15.549619
8200,-88.2408759824751,40.0953448568741,7.801527,21.412214,15.793893
8300,-88.2408803489788,40.0953504461745,13.236641,-9.458015,38.297710
8400,-88.2408847154825,40.0953560354749,4.740458,-9.305344,-6.099236
8500,-88.24088892694245,40.0953619701112,-16.351145,-2.801527,-5.206107
8600,-88.2408931384024,40.0953679047475,-4.641222,19.442749,52.213741
8700,-88.2408968939827,40.0953740201104,5.870229,54.229008,52.190838
8800,-88.2409039787653,40.0953863260713,6.618320,-12.618320,27.083969
8900,-88.2409073079676,40.0953925166693,-1.412214,-14.038168,28.229008
9000,-88.24091074646671,40.09539887217435,18.679390,-23.221375,47.343510
9100,-88.2409141849658,40.0954052276794,5.801527,12.236641,4.458015
9200,-88.24091757638516,40.0954114143009,9.687023,13.809160,23.755726
9300,-88.2409209678045,40.0954176009224,11.259542,-7.885496,33.297710
9400,-88.2409238522907,40.09542407487635,21.534351,-4.435114,47.854961
9500,-88.2409267367769,40.0954305488303,16.374046,-70.030533,-0.564885
9600,-88.24092980766841,40.0954363206194,19.511450,-10.259542,12.488549
9700,-88.2409328785599,40.0954420924085,8.923664,14.083969,21.763359
9800,-88.2409356756347,40.09544828171775,4.832061,-25.870230,13.083969
9900,-88.2409384727095,40.095454471027,23.160305,46.717556,76.702293
10000,-88.24094006505425,40.09546085810845,17.251909,-52.961834,64.160309
10100,-88.240941657399,40.0954672451899,16.656488,-69.900764,-0.664122
10200,-88.24094264235416,40.095473919077705,32.305344,-26.671755,-11.488549
10300,-88.2409436273093,40.0954805929655,9.587787,-44.595421,-44.022900
10400,-88.2409442816361,40.0954871532954,19.404581,-0.770992,-1.106870
10500,-88.2409449359629,40.0954937136253,-1.190840,17.190840,6.465649
10600,-88.2409453824232,40.09549991444055,19.015266,-7.580153,21.748091
10700,-88.2409458288835,40.0955061152558,11.160305,-38.740459,12.801527
10800,-88.2409473708646,40.0955126368547,13.068703,46.190838,-2.755725
10900,-88.2409489128457,40.0955191584536,10.267176,-23.664122,-2.343511
11000,-88.24094915196525,40.09552576437495,12.931297,-38.160305,27.587786
11100,-88.2409493910848,40.0955323702963,7.732824,-24.274809,-14.236641
11200,-88.24094830781931,40.095539129433746,9.687023,-0.931298,-0.221374
11300,-88.2409472245538,40.0955458885712,20.519083,18.259542,37.770992
11400,-88.240943870325,40.095552164992,9.931297,13.076336,8.625955
11500,-88.24093554224835,40.095563750704244,10.297709,-9.198473,22.541985
11600,-88.2409305684005,40.0955690599957,32.000000,4.175572,40.931297
11700,-88.24092635673739,40.09557355569355,12.030535,0.274809,-4.648855
11800,-88.2409221450743,40.0955780513914,9.488549,-15.641221,1.587786
11900,-88.24091754363096,40.09558253791185,10.290076,4.885496,-5.709924
12000,-88.2409129421876,40.0955870244323,-0.412214,-10.793893,-4.839694
12100,-88.24090805164676,40.09559198787075,11.923664,7.320611,13.091603
12200,-88.2409031611059,40.0955969513092,-0.778626,-10.480916,-9.335877
12300,-88.2408985757931,40.09560070217875,-1.099237,-13.450381,-17.068703
12400,-88.2408939904803,40.0956044530483,-5.099236,1.427481,-2.572519
12500,-88.24088942738045,40.0956101182683,13.885496,0.007634,38.984734
12600,-88.2408848642806,40.0956157834883,-4.496183,-20.839695,-0.099237
12700,-88.24088055094595,40.09562005618375,19.824427,-20.320610,15.000000
12800,-88.2408762376113,40.0956243288792,-4.526718,-2.648855,-3.801527
12900,-88.2408717631083,40.09562813394555,8.022901,3.152672,8.610687
13000,-88.2408672886053,40.0956319390119,4.198473,-1.908397,-11.870229
13100,-88.2408632950132,40.09563537657115,15.763359,9.854961,-3.832061
13200,-88.2408593014211,40.0956388141304,6.854962,-7.664122,-17.389313
13300,-88.2408547542754,40.09564266724075,15.106871,-9.312977,-5.541985
13400,-88.2408502071297,40.0956465203511,10.251908,-13.465649,-18.045801
13500,-88.240846276835,40.0956505423261,5.671756,-33.175571,-32.312977
13600,-88.2408423465403,40.0956545643011,-5.770992,-21.778625,-42.984734
13700,-88.240837436955,40.0956579193377,-8.961832,19.656488,-13.351145
13800,-88.2408325273697,40.0956612743743,-8.595420,-0.839695,1.633588
13900,-88.2408263782873,40.0956648782427,-14.969465,-67.816795,-19.229008
14000,-88.2408138799197,40.09567221085385,-5.167939,8.129771,-2.625954
14100,-88.2408075306345,40.0956759395966,-8.137404,-21.580153,-6.755725
14200,-88.24080103677015,40.0956801165232,0.351145,-0.259542,-17.129770
14300,-88.2407945429058,40.0956842934498,-5.465649,8.160305,-1.702290
14400,-88.24078788983235,40.09568873140455,-3.274809,-15.290076,1.564885
14500,-88.2407812367589,40.0956931693593,3.213740,-13.671756,-22.236641
14600,-88.24077463157485,40.0956967435186,-7.160306,-11.396947,-27.320610
14700,-88.2407680263908,40.0957003176779,-4.671756,-11.832061,-24.015266
14800,-88.24076165670056,40.0957039496246,-3.312977,17.961832,-6.732824
14900,-88.2407552870103,40.0957075815713,-9.213740,14.381680,5.343512
15000,-88.240749898207,40.0957120380361,-7.954198,-6.312977,-1.610687
15100,-88.2407445094037,40.0957164945009,-9.633588,-17.832062,1.290076
15200,-88.24073947647645,40.0957209306049,-13.435115,-27.061069,-11.152672
15300,-88.2407344435492,40.0957253667089,3.572519,5.877862,2.381679
15400,-88.240729111584,40.095729756805596,-6.679389,-0.435115,-9.610687
15500,-88.2407237796188,40.0957341469023,-2.320611,-8.122137,-31.717558
15600,-88.2407192052888,40.09573957602605,-6.282443,5.511450,-2.290076
15700,-88.2407146309588,40.0957450051498,-11.717557,-16.358778,-3.900763
15800,-88.24071008692376,40.09574988421395,7.473282,13.274809,-2.145038
15900,-88.2407055428887,40.0957547632781,-1.488550,1.442748,-23.045801
16000,-88.24070084949486,40.09575989075615,0.748092,14.984733,-37.030533
16100,-88.240696156101,40.0957650182342,-10.664123,-7.183206,-28.015266
16200,-88.24069184188494,40.0957700533603,-8.809160,-8.618320,-14.083969
16300,-88.2406875276689,40.0957750884864,1.190840,-4.458015,-1.816794
16400,-88.240684115354,40.0957803855615,-6.549618,-12.083969,-19.671755
16500,-88.2406807030391,40.0957856826366,4.938931,-4.893130,-16.358778
16600,-88.24067746546666,40.0957913963256,-1.549618,-18.992367,-37.923664
16700,-88.2406742278942,40.0957971100146,-8.038168,5.519084,-39.030533
16800,-88.24067090091116,40.09580327486185,-13.633588,13.938931,-31.343512
16900,-88.2406675739281,40.0958094397091,-19.236641,-38.870228,-45.175571
17000,-88.24066384999716,40.09581588380305,-22.854961,-8.809160,-23.129770
17100,-88.2406601260662,40.095822327897,-23.206106,-43.488548,-28.641222
17200,-88.24065598157155,40.0958286025165,-29.870230,-27.312977,-10.335877
17300,-88.2406518370769,40.095834877136,-10.778625,4.931298,7.763359
17400,-88.24064873779486,40.09584103987085,-17.725191,-8.740458,-22.526718
17500,-88.2406456385128,40.0958472026057,-13.374045,-6.839694,-7.534351
17600,-88.2406436426229,40.09585373385934,-7.160306,-12.129771,-21.099237
17700,-88.2406410568653,40.09586715512665,-11.458015,-13.679389,-28.244274
17800,-88.2406404669976,40.0958740451403,-10.267176,-2.099237,-23.022902
17900,-88.24064228435655,40.0958804226266,-9.694656,-14.633588,-33.893131
18000,-88.2406441017155,40.0958868001129,-26.854961,-3.213740,-30.290077
18100,-88.24064799393736,40.095892525293095,-17.511450,-9.801527,-16.633587
18200,-88.2406518861592,40.0958982504733,-23.267176,0.305344,-8.274809
18300,-88.24065836514444,40.095903006704546,-13.320611,14.496183,21.076336
18400,-88.2406648441297,40.0959077629358,-10.946565,-8.328244,-26.259542
18500,-88.24066845025473,40.095909740651706,-20.274809,0.564885,-26.824427
18600,-88.24067205637975,40.0959117183676,-25.595419,-41.442749,-30.763359
18700,-88.24067566250477,40.0959136960835,-32.259541,-12.992367,-20.496183
18800,-88.2406792686298,40.0959156737994,-42.603054,-0.969466,-1.618321
18900,-88.24068278259483,40.095917756515725,3.801527,37.343510,48.824429
19000,-88.24068629655986,40.09591983923205,-6.312977,-22.091602,12.809160
19100,-88.24068981052488,40.095921921948374,-16.244274,-32.068703,-41.335876
19200,-88.2406933244899,40.0959240046647,-26.022902,-5.938931,-44.152672
19300,-88.24069688921725,40.09592597834008,-48.679390,-10.488549,13.015267
19400,-88.2407004539446,40.09592795201545,-34.847328,-0.122137,52.916031
19500,-88.24070401867195,40.095929925690825,-15.870229,-11.290076,60.816795
19600,-88.2407075833993,40.0959318993662,-10.694656,-5.083970,35.770992
19700,-88.24071098750912,40.09593386649833,7.977099,4.862596,20.404581
19800,-88.24071439161895,40.09593583363045,10.030535,-6.580153,29.358778
19900,-88.24071779572878,40.09593780076257,26.022902,8.778625,37.282444
20000,-88.2407211998386,40.0959397678947,29.488550,-20.671755,-41.183205
20100,-88.24072636299505,40.09594425538515,5.496183,-55.137405,-40.832062
20200,-88.2407373818271,40.0959529145652,4.595420,3.099237,7.236641
20300,-88.2407432375027,40.0959570862548,5.053435,2.099237,-1.503817
20400,-88.2407493213949,40.0959609843678,5.152672,-10.366412,3.137405
20500,-88.2407554052871,40.0959648824808,8.129771,3.267176,20.786259
20600,-88.24076116338486,40.09596861008025,5.412214,0.290076,8.786260
20700,-88.2407669214826,40.0959723376797,9.549619,-2.038168,4.511450
20800,-88.24077250543604,40.095976234153,-2.206107,30.503817,-18.106871
20900,-88.2407780893895,40.0959801306263,-10.824428,9.954199,-22.496183
21000,-88.24078376892109,40.0959842707328,3.847328,92.564888,29.664122
21100,-88.2407894484527,40.0959884108393,-1.893130,-27.198473,29.061069
21200,-88.24079507688975,40.095992638595746,3.465649,5.854962,17.580153
21300,-88.2408007053268,40.0959968663522,-1.618321,-21.603054,2.679389
21400,-88.24080733512531,40.0960000656367,-0.091603,15.801527,11.106871
21500,-88.2408139649238,40.0960032649212,3.885496,0.770992,19.770992
21600,-88.24081773144313,40.096004430841745,-0.183206,-16.519083,17.053434
21700,-88.24082149796246,40.096005596762296,-1.282443,10.564885,32.122139
21800,-88.24082526448177,40.09600676268285,1.358779,2.740458,15.740458
21900,-88.2408290310011,40.0960079286034,-1.076336,-0.473282,17.496183
22000,-88.24083309710747,40.09600900377815,19.381680,5.641222,52.793892
22100,-88.24083716321385,40.0960100789529,6.229008,-6.557252,20.274809
22200,-88.24084122932022,40.09601115412765,22.427481,-6.068702,14.854961
22300,-88.2408452954266,40.0960122293024,5.938931,0.427481,0.465649
22400,-88.24085015679177,40.09601539952706,9.984733,11.320611,27.312977
22500,-88.24085501815695,40.09601856975173,-0.656489,-11.480916,15.648855
22600,-88.24085987952213,40.09602173997639,14.396947,2.816794,19.496183
22700,-88.2408647408873,40.09602491020105,6.877862,-13.763359,20.702290
22800,-88.24086960225247,40.09602808042571,9.015267,-6.412214,31.763359
22900,-88.24087446361764,40.09603125065038,25.137405,-21.244274,50.885498
23000,-88.24087932498281,40.09603442087504,21.725191,-37.419846,16.519083
23100,-88.240884186348,40.0960375910997,21.877863,6.778626,2.259542
23200,-88.24088576135105,40.096043126617204,11.442748,20.435114,0.702290
23300,-88.2408873363541,40.0960486621347,6.129771,-2.068702,9.633588
23400,-88.24088857261205,40.0960547598238,4.152672,20.366413,32.778625
23500,-88.24088980887,40.0960608575129,9.961832,-2.106870,45.267174
23600,-88.24089073911114,40.09606659548475,21.854961,-21.526718,46.083969
23700,-88.2408916693523,40.0960723334566,14.129771,-9.938931,9.679389
23800,-88.24089332389539,40.0960784122733,13.816793,-2.595420,9.526717
23900,-88.2408949784385,40.09608449109,5.526718,5.022901,20.175573
24000,-88.24089789470345,40.09609045641635,14.312977,-29.351145,43.519085
24100,-88.2409008109684,40.0960964217427,18.740458,-19.557251,38.961834
24200,-88.24090719377756,40.096109107273904,39.519085,-10.396947,47.114502
24300,-88.24091676110775,40.096127748499896,33.900764,-20.511450,10.458015
24400,-88.2409199456288,40.0961337041947,46.557251,-2.000000,9.458015
24500,-88.24092252466156,40.09613931438945,33.068703,-7.549618,-8.137404
24600,-88.2409251036943,40.0961449245842,30.923664,-11.351145,-3.557252
24700,-88.240927551868,40.0961502551087,30.068703,-10.977099,-30.740458
24800,-88.2409300000417,40.0961555856332,26.717558,8.412213,-15.038168
24900,-88.24093268695896,40.0961615989509,21.946566,7.442748,-24.435114
25000,-88.2409353738762,40.0961676122686,15.419847,9.183207,-38.427483
25100,-88.2409384129836,40.096174138218956,2.053435,-22.091602,-43.351147
25200,-88.240941452091,40.0961806641693,-2.000000,-5.015267,-18.007633
25300,-88.24094217830125,40.096187579248806,-12.633588,-11.412213,2.305344
25400,-88.2409429045115,40.0961944943283,-1.801527,13.419847,10.641221
25500,-88.24094402217256,40.096201327591146,-7.755725,-15.732824,-30.496183
25600,-88.2409451398336,40.096208160854,-10.503817,36.694656,-7.816794
25700,-88.2409456471254,40.096215016559896,-18.977098,15.236641,-10.435115
25800,-88.2409461544172,40.0962218722658,-5.496183,-14.160305,10.389313
25900,-88.24094752488284,40.09622848804355,-1.862595,-6.160306,14.763359
26000,-88.2409488953485,40.0962351038213,-4.137404,-1.122137,-15.839695
26100,-88.24095018204575,40.0962420858185,-15.809160,-25.167938,-3.580153
26200,-88.240951468743,40.0962490678157,1.099237,5.068702,33.450382
26300,-88.2409519838483,40.09625602170555,1.122137,-5.633588,-3.580153
26400,-88.2409524989536,40.0962629755954,5.129771,24.312977,5.259542
26500,-88.2409532811408,40.096269687184446,3.885496,-7.320611,5.908397
26600,-88.240954063328,40.0962763987735,8.000000,-16.633587,-9.893129
26700,-88.24095396291345,40.096282992904904,3.931298,-6.267176,-12.984733
26800,-88.2409538624989,40.0962895870363,6.358778,-0.801527,-21.755726
26900,-88.24094992132726,40.09629398653915,0.030534,-9.030535,-5.351145
27000,-88.2409459801556,40.09629838604201,-1.022901,-7.496183,-0.717557
27100,-88.24094203898395,40.09630278554486,3.748092,9.511451,-12.847328
27200,-88.24093415664063,40.096311584550556,-3.648855,-16.374046,-20.038168
27300,-88.24093021546899,40.096315984053405,1.900763,10.580153,-6.748092
27400,-88.24092627429735,40.096320383556254,-2.183206,0.244275,-25.557251
27500,-88.2409223331257,40.0963247830591,0.717557,8.984733,-11.526717
27600,-88.24091560771785,40.0963276365993,-1.648855,0.610687,-14.786260
27700,-88.24090888231,40.0963304901395,-6.709924,7.251908,-2.587786
27800,-88.24090529306889,40.09633205829978,-9.641221,-15.587787,-2.282443
27900,-88.2409017038278,40.09633362646005,-7.267176,-14.938931,-16.412214
28000,-88.2408981145867,40.09633519462032,-12.290076,-25.015266,-32.343510
28100,-88.2408945253456,40.0963367627806,-9.137404,18.038168,-32.152672
28200,-88.24089097970322,40.09633846109973,-7.702290,-18.305344,0.343511
28300,-88.24088743406085,40.09634015941885,1.290076,1.358779,-12.190840
28400,-88.24088388841847,40.096341857737976,-12.496183,-12.320611,-36.824429
28500,-88.2408803427761,40.0963435560571,-13.671756,-30.030535,-11.251908
28600,-88.24087663212586,40.09634547205225,-4.694656,-5.053435,-5.946565
28700,-88.24087292147564,40.0963473880474,-12.465649,-27.312977,-17.793894
28800,-88.24086921082542,40.09634930404255,-17.664122,-20.106871,-27.977098
28900,-88.2408655001752,40.0963512200377,-8.557252,10.931297,-5.534351
29000,-88.24086184971873,40.096353085530225,-5.206107,-18.343512,4.389313
29100,-88.24085819926225,40.09635495102275,6.068702,19.816793,-13.213740
29200,-88.24085454880577,40.096356816515275,-2.793893,7.847328,-18.519083
29300,-88.2408508983493,40.0963586820078,-9.122137,5.229008,-15.404580
29400,-88.2408446659383,40.0963626001977,-2.870229,-20.442749,-19.885496
29500,-88.2408384335273,40.0963665183876,-3.580153,-2.068702,-12.419847
29600,-88.240832630794,40.096370568996846,5.923664,-18.946566,-23.160305
29700,-88.2408268280607,40.0963746196061,-1.740458,-5.114504,-36.740459
29800,-88.24082099339515,40.09637840600965,-12.030535,-17.236641,-42.503819
29900,-88.240809896204,40.096387131252655,-14.893129,-40.236641,-48.725189
30000,-88.2408046336784,40.0963920700921,-18.992367,-39.877861,-29.648855
30100,-88.24079874416509,40.09639671523115,-14.969465,0.572519,-8.656488
30200,-88.2407928546518,40.0964013603702,-16.633587,1.587786,-26.435114
30300,-88.24078688700439,40.09640633663655,-11.587787,-16.824427,-36.503819
30400,-88.240780919357,40.0964113129029,-18.625954,-10.152672,-41.541985
30500,-88.24077521355665,40.096416358782704,-24.465649,12.015267,-25.007633
30600,-88.2407695077563,40.0964214046625,-19.564886,-15.137404,-4.351145
30700,-88.24076321404104,40.0964262230532,-13.061069,10.656488,0.374046
30800,-88.2407569203258,40.0964310414439,-19.961832,-21.305344,-37.320610
30900,-88.24075110689839,40.096436024051954,-15.923664,-4.022901,-25.595419
31000,-88.240745293471,40.09644100666,-23.053434,-15.755725,-15.625955
31100,-88.2407394800436,40.09644598926805,-20.450382,-19.694656,-22.587786
31200,-88.2407336666162,40.0964509718761,-21.404581,-13.404580,-26.969465
31300,-88.2407285281992,40.0964555532572,-27.267176,-4.160306,-19.557251
31400,-88.2407233897822,40.0964601346383,-21.946566,-9.114504,-15.450381
31500,-88.24071858264381,40.0964646750518,-45.175571,-37.732826,-16.389313
31600,-88.2407137755054,40.0964692154653,-28.404581,20.610687,21.190840
31700,-88.24070968261265,40.09647417189825,-36.351147,-11.152672,20.091602
31800,-88.2407055897199,40.0964791283312,-26.106871,-2.198473,23.305344
31900,-88.2407015985273,40.0964847520018,-20.221375,-6.221374,12.862596
32000,-88.2406976073347,40.0964903756724,-16.709923,-2.244275,17.137405
32100,-88.24069384106889,40.09649639896125,-0.519084,0.290076,31.564886
32200,-88.2406900748031,40.0965024222501,0.206107,-11.480916,15.610687
32300,-88.24068613610635,40.09650879389845,1.809160,7.137404,3.198473
32400,-88.2406821974096,40.0965151655468,-5.778626,-0.297710,-0.137405
32500,-88.24067876248215,40.0965209096345,-4.473282,-4.961832,16.564886
32600,-88.2406753275547,40.0965266537222,1.832061,-6.793893,21.099237
32700,-88.24067153684415,40.09653286106265,12.274809,35.000000,8.786260
32800,-88.2406677461336,40.0965390684031,17.969465,15.366412,45.145039
32900,-88.24066411314325,40.0965454245247,21.923664,2.541985,-2.984733
33000,-88.2406604801529,40.0965517806463,8.251908,0.954198,-16.923664
33100,-88.24065729236071,40.0965577682337,5.320611,-2.465649,4.030534
33200,-88.2406541045685,40.0965637558211,-11.687023,-28.938931,-4.526718
33300,-88.2406485771615,40.0965770016125,-14.045801,5.572519,14.328244
33400,-88.24064552840369,40.096583420108246,3.618321,-10.832061,35.427483
33500,-88.2406424796459,40.096589838604,10.366412,17.702290,10.641221
33600,-88.24063970323465,40.09659576298405,8.564885,-4.709924,10.809160
33700,-88.2406369268234,40.0966016873641,10.190840,-25.717558,10.534351
33800,-88.2406340470348,40.09660823504085,17.038168,-0.793893,2.427481
33900,-88.2406311672462,40.0966147827176,5.832061,6.763359,-5.229008
34000,-88.24062934173125,40.096622550792404,-0.725191,16.511450,-3.022901
34100,-88.2406275162163,40.0966303188672,-15.503817,-5.694656,-2.435115
34200,-88.24062777722625,40.09663707420095,0.473282,16.206106,17.267176
34300,-88.2406280382362,40.0966438295347,12.961832,5.893130,36.633587
34400,-88.2406298336931,40.0966554550905,20.786259,-14.877863,19.083969
34500,-88.24063162915,40.0966670806463,13.954199,0.725191,-3.381679
34600,-88.2406317079912,40.096669405030894,8.122137,-21.725191,-9.000000
34700,-88.2406317868324,40.0966717294155,1.885496,-8.916031,-5.763359
34800,-88.24063439317725,40.096673286306995,-13.152672,-2.312977,-4.114504
34900,-88.2406369995221,40.0966748431985,-3.648855,4.488550,25.610687
35000,-88.24063729968856,40.0966761469236,5.870229,10.351145,29.770992
35100,-88.240637599855,40.0966774506487,-1.282443,1.282443,27.595419
35200,-88.24064016071705,40.09668228137075,9.000000,-9.755725,19.099237
35300,-88.2406427215791,40.0966871120928,4.183206,1.290076,27.511450
35400,-88.2406473875085,40.0966930645153,4.969466,-8.213740,19.206106
35500,-88.2406520534379,40.0966990169378,6.404580,-9.610687,10.442748
35600,-88.2406583480513,40.0967049182021,-5.786260,-24.045801,9.679389
35700,-88.2406646426647,40.0967108194664,9.442748,-12.358779,29.526718
35800,-88.2406686657467,40.096713418794906,6.083970,12.106871,17.412214
35900,-88.2406726888287,40.0967160181234,9.938931,1.618321,30.870230
36000,-88.2406767119107,40.0967186174519,13.916031,-2.748092,37.419846
36100,-88.2406807349927,40.0967212167804,17.496183,7.251908,42.343510
36200,-88.2406879618365,40.0967261381917,24.778625,-11.297709,36.717556
36300,-88.24069157525841,40.09672859889735,10.740458,-13.671756,6.870229
36400,-88.2406951886803,40.096731059603,20.068703,-11.129771,20.465649
36500,-88.2406985839838,40.0967331278699,21.251909,-23.290077,17.480917
36600,-88.24070197928731,40.096735196136805,28.198473,4.717557,8.664123
36700,-88.2407053745908,40.0967372644037,31.374046,-10.114504,9.442748
36800,-88.2407087698943,40.0967393326706,22.000000,-4.106870,2.389313
36900,-88.24071216056942,40.09674132423565,10.244275,-1.229008,-17.335878
37000,-88.24071555124455,40.0967433158007,5.458015,1.053435,-9.862596
37100,-88.24071894191968,40.09674530736575,-6.641222,-6.091603,14.351145
37200,-88.2407223325948,40.0967472989308,14.305344,25.572519,43.076336
37300,-88.24072798582034,40.096751378202995,13.488549,-22.625954,26.954199
37400,-88.2407336390459,40.0967554574752,16.557251,-26.374046,8.885496
37500,-88.2407375326462,40.096759760046794,20.480917,-7.167939,-2.427481
37600,-88.2407414262465,40.0967640626184,9.977099,17.381680,7.564886
37700,-88.2407446182898,40.0967670237,11.129771,-8.633588,14.610687
37800,-88.2407478103331,40.0967699847816,7.977099,-5.763359,8.870229
37900,-88.2407516817703,40.0967722620742,11.893129,-25.793894,0.297710
38000,-88.2407555532075,40.0967745393668,3.488550,-4.854962,-6.076336
38100,-88.2407592977597,40.0967770578281,-7.580153,22.595419,15.687023
38200,-88.2407630423119,40.0967795762894,24.152672,9.053435,48.038166
38300,-88.24076776859116,40.0967824404648,10.076336,-9.419847,0.618321
38400,-88.2407724948704,40.0967853046402,10.061069,-15.793893,3.900763
38500,-88.2407780678245,40.096789753704755,19.160305,0.366412,-0.061069
38600,-88.2407836407786,40.0967942027693,11.374045,9.473283,16.725191
38700,-88.24078813484681,40.09679711373898,19.702290,-3.442748,3.419847
38800,-88.240792628915,40.09680002470866,18.351145,1.809160,2.587786
38900,-88.2407971229832,40.096802935678326,19.167938,-10.702291,-2.206107
39000,-88.2408016170514,40.096805846648,19.519083,-5.129771,-18.534351
39100,-88.2408069402241,40.09680696592535,8.183207,1.305344,-16.419847
39200,-88.2408122633968,40.0968080852027,8.404580,5.259542,-9.122137
39300,-88.2408175865695,40.09680920448005,5.236641,-3.511450,-9.694656
39400,-88.2408229097422,40.0968103237574,8.702291,10.816793,-5.305344
39500,-88.2408199163678,40.096819692907204,8.358779,1.541985,-21.366413
39600,-88.2408169229934,40.096829062057,-8.503817,4.862596,-14.709924
39700,-88.24082209756355,40.096835125163295,4.442748,-11.908397,6.984733
39800,-88.2408272721337,40.0968411882696,2.854962,4.045802,2.549618
39900,-88.24083287163594,40.09684680249275,1.671756,0.480916,-16.061069
40000,-88.2408384711382,40.0968524167159,-7.129771,8.618320,-11.923664
40100,-88.24084292807424,40.096858291666294,1.587786,13.793893,-14.045801
40200,-88.2408473850103,40.0968641666167,-4.343512,-3.167939,-19.045801
40300,-88.24084936700855,40.096870068177594,2.671756,22.259542,-9.137404
40400,-88.2408513490068,40.0968759697385,-6.862596,2.198473,-10.488549
40500,-88.24085507315488,40.09688192383837,-2.770992,-7.015267,-4.946565
40600,-88.24085879730296,40.09688787793823,-5.801527,-6.633588,-7.709924
40700,-88.24086252145104,40.09689383203809,-3.709924,-19.122137,0.763359
40800,-88.24086624559911,40.09689978613795,5.916030,20.839695,-0.854962
40900,-88.24086996974718,40.096905740237816,-0.190840,9.137404,-36.709923
41000,-88.24087369389525,40.09691169433768,0.137405,40.625954,-15.732824
41100,-88.24087741804333,40.09691764843754,-2.664122,25.427481,-4.717557
41200,-88.2408811421914,40.0969236025374,-5.839694,21.007633,-9.198473
41300,-88.24088486633947,40.096929556637264,-8.786260,-3.587786,-8.374045
41400,-88.24088859048754,40.096935510737126,-5.511450,9.465649,-11.427481
41500,-88.24089231463562,40.09694146483699,-11.267176,-2.167939,-16.656488
41600,-88.24089603878369,40.09694741893685,-1.725191,10.488549,-21.442749
41700,-88.24089976293176,40.09695337303671,-23.030535,-32.900764,-3.374046
41800,-88.24090348707983,40.096959327136574,-7.167939,-10.893129,1.885496
41900,-88.24090721122792,40.096965281236436,3.717557,8.694656,8.488549
42000,-88.240910935376,40.0969712353363,19.648855,9.297709,-10.045801
42100,-88.24091217463774,40.09697162563165,-1.221374,-32.725189,-49.694656
42200,-88.2409134138995,40.096972015927,4.595420,29.152672,-18.824427
42300,-88.2409169741707,40.0969768135702,-7.007634,-27.297710,-38.900764
42400,-88.2409205344419,40.0969816112134,-6.412214,-5.549618,-25.832062
42500,-88.2409248366951,40.096988978618455,-4.809160,-1.625954,-24.526718
42600,-88.2409291389483,40.0969963460235,6.312977,5.854962,-16.381680
42700,-88.24093305806906,40.0970023895523,-13.801527,-35.366413,-36.435116
42800,-88.2409369771898,40.0970084330811,-17.656488,-27.442749,-39.465649
42900,-88.24094059742706,40.097016191616845,-25.748091,-22.496183,-17.832062
43000,-88.2409442176643,40.0970239501526,-20.961832,-6.381680,-13.206107
43100,-88.24094799093506,40.09703213824895,-19.007633,-18.465649,-12.885496
43200,-88.2409517642058,40.0970403263453,-24.610687,-12.221375,-35.022900
43300,-88.24095110094875,40.0970474133549,-11.251908,-23.786259,-22.748091
43400,-88.2409504376917,40.0970545003645,-16.755726,-33.961834,-41.091602
43500,-88.2409441165033,40.09706114778755,-18.557251,-8.847328,-17.259542
43600,-88.2409377953149,40.0970677952106,-21.106871,-31.503817,-22.648855
43700,-88.24093469539201,40.09707049944265,-23.335878,-12.259542,-18.297710
43800,-88.2409315954691,40.0970732036747,-25.893129,-2.893130,-7.633588
43900,-88.24092607875181,40.097080369425896,-20.633587,-9.870229,-2.740458
44000,-88.2409205620345,40.0970875351771,-28.076336,-6.763359,-16.541985
44100,-88.2409155503192,40.09709076719625,-24.824427,-24.022902,-14.687023
44200,-88.2409105386039,40.0970939992154,-19.290077,-28.480917,-5.702290
44300,-88.24090431089795,40.09709728280011,-30.992367,0.091603,-1.931298
44400,-88.240898083192,40.0971005663848,-27.030535,4.641222,13.045801
44500,-88.24089134001115,40.097103711049,-25.358778,-4.419847,14.427481
44600,-88.2408845968303,40.0971068557132,-19.969465,-14.297709,12.366412
44700,-88.24087844267295,40.0971115528776,-19.366413,-5.755725,12.900764
44800,-88.2408722885156,40.097116250042,-18.419847,-13.145039,25.328245
44900,-88.24086670211815,40.097121931587154,-9.580153,2.198473,33.030533
45000,-88.2408611157207,40.0971276131323,-4.198473,-7.763359,29.572519
45100,-88.24085735244955,40.09713305720885,1.702290,9.175572,22.549618
45200,-88.2408535891784,40.0971385012854,6.091603,-13.297709,17.687023
45300,-88.2408512806776,40.097142993781546,4.793893,-0.473282,6.511450
45400,-88.2408489721768,40.0971474862777,8.404580,3.358779,22.541985
45500,-88.2408455012847,40.0971540024743,16.000000,17.740458,15.732824
45600,-88.2408420303926,40.0971605186709,18.732824,-13.541985,14.778625
45700,-88.24083767026555,40.09716509800219,20.290077,3.511450,20.946566
45800,-88.2408333101385,40.0971696773335,6.419847,12.870229,-18.229008
45900,-88.24082885914146,40.0971763370859,3.847328,-14.244275,14.740458
46000,-88.2408244081444,40.0971829968383,5.389313,-10.389313,10.854961
46100,-88.24082145746125,40.09718889653125,17.824427,3.519084,24.687023
46200,-88.2408185067781,40.0971947962242,23.129770,-16.152672,30.137405
46300,-88.24081709601835,40.0972019078035,28.603054,14.702291,24.687023
46400,-88.2408156852586,40.0972090193828,13.122137,-8.717557,17.458015
46500,-88.24081302892884,40.097214907178255,14.083969,7.862596,12.335877
46600,-88.2408103725991,40.0972207949737,4.618320,12.213740,3.351145
46700,-88.24080526141675,40.09722652417385,9.496183,10.244275,8.961832
46800,-88.2408001502344,40.097232253374,-0.396947,22.717558,-83.114502
46900,-88.24079693024424,40.097237521009106,-1.740458,7.694656,-15.343512
47000,-88.2407937102541,40.0972427886442,-4.694656,-21.923664,-13.183207
47100,-88.24079046145374,40.097247783352756,-0.717557,17.877863,12.435115
47200,-88.2407872126534,40.0972527780613,4.885496,8.908397,21.007633
47300,-88.2407864963678,40.097258115548456,14.587787,-7.580153,18.679390
47400,-88.2407857800822,40.0972634530356,8.229008,-5.679389,-4.381680
47500,-88.24078402328806,40.097270008219596,12.419847,0.916031,8.801527
47600,-88.2407822664939,40.0972765634036,20.053434,5.496183,21.770992
47700,-88.2407823349451,40.0972828292456,15.488549,-9.969465,1.465649
47800,-88.2407824033963,40.0972890950876,14.312977,-1.786260,-2.603053
47900,-88.2407824033963,40.0972890950876,15.793893,-6.038168,12.366412
